{
"type": "FeatureCollection",
                                                                                
"features": [
{ "type": "Feature", "properties": { "name": "Sandbeach Lake Trailhead", "id": "48096002" }, "geometry": { "type": "Point", "coordinates": [ -105.534613819037261, 40.219745097720406 ] } },
{ "type": "Feature", "properties": { "name": "East Portal Trailhead", "id": "-989588433" }, "geometry": { "type": "Point", "coordinates": [ -105.576215987892994, 40.32825303131758 ] } },
{ "type": "Feature", "properties": { "name": "Finch Lake Trailhead", "id": "-944888892" }, "geometry": { "type": "Point", "coordinates": [ -105.561029552595201, 40.208545243237339 ] } },
{ "type": "Feature", "properties": { "name": "Endovalley Trailhead", "id": "1895858466" }, "geometry": { "type": "Point", "coordinates": [ -105.624844021568919, 40.404909818512394 ] } },
{ "type": "Feature", "properties": { "name": "Lawn Lake Trailhead", "id": "401910379" }, "geometry": { "type": "Point", "coordinates": [ -105.626343993396063, 40.407194700896113 ] } },
{ "type": "Feature", "properties": { "name": "East Alluvial Fan Trailhead", "id": "1094709559" }, "geometry": { "type": "Point", "coordinates": [ -105.631944970327936, 40.409943286979107 ] } },
{ "type": "Feature", "properties": { "name": "West Alluvial Fan Trailhead", "id": "379351386" }, "geometry": { "type": "Point", "coordinates": [ -105.637473141500976, 40.410803440777578 ] } },
{ "type": "Feature", "properties": { "name": "Abandoned Beaver Ponds Trailhead", "id": "52410602" }, "geometry": { "type": "Point", "coordinates": [ -105.641124167903456, 40.39908311984307 ] } },
{ "type": "Feature", "properties": { "name": "Hidden Valley Trailhead", "id": "1887344007" }, "geometry": { "type": "Point", "coordinates": [ -105.65465150969483, 40.393944330685343 ] } },
{ "type": "Feature", "properties": { "name": "Glacier Basin Campground Trailhead", "id": "-392966414" }, "geometry": { "type": "Point", "coordinates": [ -105.596244444444395, 40.326090132361699 ] } },
{ "type": "Feature", "properties": { "name": "Forest Canyon Overlook Trailhead", "id": "-1917310788" }, "geometry": { "type": "Point", "coordinates": [ -105.711389367144506, 40.395661622993636 ] } },
{ "type": "Feature", "properties": { "name": "Rock Cut Trailhead", "id": "651043236" }, "geometry": { "type": "Point", "coordinates": [ -105.733214340315754, 40.412425572543697 ] } },
{ "type": "Feature", "properties": { "name": "Milner Pass Trailhead", "id": "-1317713382" }, "geometry": { "type": "Point", "coordinates": [ -105.811801314956568, 40.420111820790247 ] } },
{ "type": "Feature", "properties": { "name": "Lake Irene Trailhead", "id": "190953453" }, "geometry": { "type": "Point", "coordinates": [ -105.818895416756448, 40.413700836363986 ] } },
{ "type": "Feature", "properties": { "name": "Colorado River Trailhead", "id": "1903005660" }, "geometry": { "type": "Point", "coordinates": [ -105.848733733266272, 40.40086533765119 ] } },
{ "type": "Feature", "properties": { "name": "Timber Lake Trailhead", "id": "147051934" }, "geometry": { "type": "Point", "coordinates": [ -105.847630645216512, 40.399510863561964 ] } },
{ "type": "Feature", "properties": { "name": "Bowen-Baker Trailhead", "id": "-1837084103" }, "geometry": { "type": "Point", "coordinates": [ -105.857502182466348, 40.354810277382043 ] } },
{ "type": "Feature", "properties": { "name": "Onahu Creek Trailhead", "id": "-963173112" }, "geometry": { "type": "Point", "coordinates": [ -105.843615294474105, 40.315781587881297 ] } },
{ "type": "Feature", "properties": { "name": "Green Mountain Trailhead", "id": "1113636528" }, "geometry": { "type": "Point", "coordinates": [ -105.841366822097754, 40.307347634347835 ] } },
{ "type": "Feature", "properties": { "name": "Kawuneeche Visitor Center Trailhead", "id": "1527359162" }, "geometry": { "type": "Point", "coordinates": [ -105.833045101495188, 40.266739234157178 ] } },
{ "type": "Feature", "properties": { "name": "Moraine Park Discovery Center Trailhead", "id": "-1608224388" }, "geometry": { "type": "Point", "coordinates": [ -105.584518568514753, 40.358390182462685 ] } },
{ "type": "Feature", "properties": { "name": "Tuxedo Park Trailhead", "id": "1953910401" }, "geometry": { "type": "Point", "coordinates": [ -105.584706887737653, 40.34601511079191 ] } },
{ "type": "Feature", "properties": { "name": "Park and Ride Trailhead", "id": "333253990" }, "geometry": { "type": "Point", "coordinates": [ -105.601304985580484, 40.329743513592085 ] } },
{ "type": "Feature", "properties": { "name": "Sprague Lake Trailhead", "id": "1772431754" }, "geometry": { "type": "Point", "coordinates": [ -105.608127862639904, 40.320857089568356 ] } },
{ "type": "Feature", "properties": { "name": "Bierstadt Lake Trailhead", "id": "-1384218740" }, "geometry": { "type": "Point", "coordinates": [ -105.623500234430367, 40.320522131120676 ] } },
{ "type": "Feature", "properties": { "name": "Bierstadt Lake\/Storm Pass Trailhead", "id": "1369449168" }, "geometry": { "type": "Point", "coordinates": [ -105.620022455316928, 40.320114336759509 ] } },
{ "type": "Feature", "properties": { "name": "Glacier Gorge Trailhead", "id": "-50380717" }, "geometry": { "type": "Point", "coordinates": [ -105.639951285247705, 40.31076763894481 ] } },
{ "type": "Feature", "properties": { "name": "Bear Lake Trailhead", "id": "1283094868" }, "geometry": { "type": "Point", "coordinates": [ -105.645705840855484, 40.311932215487296 ] } },
{ "type": "Feature", "properties": { "name": "Longs Peak Trailhead", "id": "1405818466" }, "geometry": { "type": "Point", "coordinates": [ -105.55661152655955, 40.272051246503921 ] } },
{ "type": "Feature", "properties": { "name": "Timber Creek Campground Trailhead", "id": "-1657259879" }, "geometry": { "type": "Point", "coordinates": [ -105.850287508789009, 40.379762089784982 ] } },
{ "type": "Feature", "properties": { "name": "Ute Trail East Trailhead", "id": "889202421" }, "geometry": { "type": "Point", "coordinates": [ -105.695363847378943, 40.3933570583131 ] } },
{ "type": "Feature", "properties": { "name": "Hollowell Park Trailhead", "id": "-1296180421" }, "geometry": { "type": "Point", "coordinates": [ -105.605252182938884, 40.341504398292948 ] } },
{ "type": "Feature", "properties": { "name": "Glacier Creek Riding Stable Trailhead", "id": "994530697" }, "geometry": { "type": "Point", "coordinates": [ -105.605149741758851, 40.32291233852704 ] } },
{ "type": "Feature", "properties": { "name": "Lumpy Ridge Trailhead", "id": "-1529731371" }, "geometry": { "type": "Point", "coordinates": [ -105.512281442359253, 40.39610074929864 ] } },
{ "type": "Feature", "properties": { "name": "Coyote Valley Trailhead", "id": "-532031067" }, "geometry": { "type": "Point", "coordinates": [ -105.858416049384672, 40.344638483091778 ] } },
{ "type": "Feature", "properties": { "name": "Lily Lake Visitor Center Trailhead", "id": "-1072856241" }, "geometry": { "type": "Point", "coordinates": [ -105.537065799351353, 40.306582862717235 ] } },
{ "type": "Feature", "properties": { "name": "Beaver Meadows Trailhead", "id": "1826330188" }, "geometry": { "type": "Point", "coordinates": [ -105.613756522953892, 40.372906764389143 ] } },
{ "type": "Feature", "properties": { "name": "Beaver Ponds Trailhead", "id": "688731135" }, "geometry": { "type": "Point", "coordinates": [ -105.847628210782077, 40.38723469555925 ] } },
{ "type": "Feature", "properties": { "name": "Fall River Pass Trailhead", "id": "2080510067" }, "geometry": { "type": "Point", "coordinates": [ -105.753756845349713, 40.44152468340431 ] } },
{ "type": "Feature", "properties": { "name": "Moraine Park Trailhead", "id": "-683345533" }, "geometry": { "type": "Point", "coordinates": [ -105.583416393153314, 40.353940883381085 ] } },
{ "type": "Feature", "properties": { "name": "East Inlet Trailhead", "id": "629519379" }, "geometry": { "type": "Point", "coordinates": [ -105.800197895009219, 40.239690049475101 ] } },
{ "type": "Feature", "properties": { "name": "North Inlet Trailhead", "id": "1139140940" }, "geometry": { "type": "Point", "coordinates": [ -105.814397699452584, 40.256825449002754 ] } },
{ "type": "Feature", "properties": { "name": "Wild Basin Trailhead", "id": "772824897" }, "geometry": { "type": "Point", "coordinates": [ -105.566563224075452, 40.20801243488512 ] } },
{ "type": "Feature", "properties": { "name": "Lily Lake Trailhead", "id": "2061532612" }, "geometry": { "type": "Point", "coordinates": [ -105.537777427651434, 40.306619317635594 ] } },
{ "type": "Feature", "properties": { "name": "Cub Lake Trailhead", "id": "-1817359116" }, "geometry": { "type": "Point", "coordinates": [ -105.615607862719557, 40.356183255568396 ] } },
{ "type": "Feature", "properties": { "name": "Fern Lake Winter Parking Trailhead", "id": "-1298144071" }, "geometry": { "type": "Point", "coordinates": [ -105.61924722180315, 40.357137660725414 ] } },
{ "type": "Feature", "properties": { "name": "Fern Lake Trailhead", "id": "-1987903167" }, "geometry": { "type": "Point", "coordinates": [ -105.630967871895081, 40.354886489458067 ] } },
{ "type": "Feature", "properties": { "name": "Bowen-Gulch Connector Trailhead", "id": "-87512334" }, "geometry": { "type": "Point", "coordinates": [ -105.856862923343868, 40.328176308130317 ] } },
{ "type": "Feature", "properties": { "name": "Holzwarth Historic Site Trailhead", "id": "1533022469" }, "geometry": { "type": "Point", "coordinates": [ -105.854568438360332, 40.372715406907361 ] } },
{ "type": "Feature", "properties": { "name": "Chapin Creek Trailhead", "id": "-1610468499" }, "geometry": { "type": "Point", "coordinates": [ -105.730307092019018, 40.43486300824906 ] } },
{ "type": "Feature", "properties": { "name": "Deer Mountain Trailhead", "id": "-42143976" }, "geometry": { "type": "Point", "coordinates": [ -105.609925510101036, 40.386972826769608 ] } },
{ "type": "Feature", "properties": { "name": "Upper Beaver Meadows Trailhead", "id": "1626905364" }, "geometry": { "type": "Point", "coordinates": [ -105.596380022340938, 40.370665956569233 ] } },
{ "type": "Feature", "properties": { "name": "Livery Trailhead", "id": "763799986" }, "geometry": { "type": "Point", "coordinates": [ -105.613506129246517, 40.357689504016811 ] } },
{ "type": "Feature", "properties": { "name": "Wild Basin Winter Parking Trailhead", "id": "1974464915" }, "geometry": { "type": "Point", "coordinates": [ -105.551408270634894, 40.210818224155922 ] } },
{ "type": "Feature", "properties": { "name": "East Shore Trailhead", "id": "355590956" }, "geometry": { "type": "Point", "coordinates": [ -105.82585675115061, 40.240361891406572 ] } },
{ "type": "Feature", "properties": { "name": "Lily Mountain Trailhead", "id": "-548001757" }, "geometry": { "type": "Point", "coordinates": [ -105.535341691223806, 40.313745814951268 ] } },
{ "type": "Feature", "properties": { "name": "Twin Sisters Trailhead", "id": "625234658" }, "geometry": { "type": "Point", "coordinates": [ -105.535321284460693, 40.303106382800912 ] } },
{ "type": "Feature", "properties": { "name": "Glacier Basin Park and Ride Trailhead", "id": "-1228883584" }, "geometry": { "type": "Point", "coordinates": [ -105.602175770155696, 40.329018700379947 ] } },
{ "type": "Feature", "properties": { "name": "Cow Creek Trailhead", "id": "-1533432771" }, "geometry": { "type": "Point", "coordinates": [ -105.500697307971606, 40.431150180467313 ] } },
{ "type": "Feature", "properties": { "name": "Macgregor Falls Trailhead", "id": "-1123370916" }, "geometry": { "type": "Point", "coordinates": [ -105.547348806938899, 40.405087223346307 ] } },
{ "type": "Feature", "properties": { "name": "North Boundary Trail Trailhead", "id": "135382115" }, "geometry": { "type": "Point", "coordinates": [ -105.460488535450096, 40.47568440463445 ] } },
{ "type": "Feature", "properties": { "name": "AA Barn Trailhead", "id": "580464283" }, "geometry": { "type": "Point", "coordinates": [ -105.838145596973106, 40.202039820318397 ] } },
{ "type": "Feature", "properties": { "name": "Arapaho National Recreation Area East Shore Trailhead", "id": "1137352266" }, "geometry": { "type": "Point", "coordinates": [ -105.8403597905331, 40.208196267506132 ] } },
{ "type": "Feature", "properties": { "name": "Many Parks Curve Westbound Trailhead", "id": "929096953" }, "geometry": { "type": "Point", "coordinates": [ -105.632541318793102, 40.387673661543651 ] } },
{ "type": "Feature", "properties": { "name": "Chasm Falls Trailhead", "id": "1567557626" }, "geometry": { "type": "Point", "coordinates": [ -105.672965685141094, 40.417078331249243 ] } },
{ "type": "Feature", "properties": { "name": "Tonahutu Trailhead", "id": "-480515555" }, "geometry": { "type": "Point", "coordinates": [ -105.816084970740206, 40.25628094108373 ] } },
{ "type": "Feature", "properties": { "name": "Coral Creek Trailhead", "id": "1589606678" }, "geometry": { "type": "Point", "coordinates": [ -105.770684367605398, 40.5179497795028 ] } },
{ "type": "Feature", "properties": { "name": "Gem Lake Trailhead", "id": "-800014000" }, "geometry": { "type": "Point", "coordinates": [ -105.512374543861597, 40.396760958363963 ] } },
{ "type": "Feature", "properties": { "name": "Gem Lake Livery Trailhead", "id": "-1514023257" }, "geometry": { "type": "Point", "coordinates": [ -105.512403365078598, 40.392880429549948 ] } },
{ "type": "Feature", "properties": { "name": "Many Parks Curve Eastbound Trailhead", "id": "695250196" }, "geometry": { "type": "Point", "coordinates": [ -105.6310226542615, 40.38785881543447 ] } }
]
}
